[{
  "_id": {
    "$oid": "67dfe01bb256a8ff1630a81d"
  },
  "name": "Grand Palace",
  "location": "Conoor",
  "image": "img/about-2.jpg",
  "description": "A luxurious hilltop retreat offering breathtaking views and world-class hospitality.",
  "amenities": [
    "Free WiFi",
    "Swimming Pool",
    "Spa",
    "Restaurant",
    "Gym"
  ],
  "lat": 11.35,
  "lng": 76.7955,
  "__v": 0,
  "roomsAvailable": 7,
  "totalRooms": 20
},
{
  "_id": {
    "$oid": "67dfe01bb256a8ff1630a81e"
  },
  "name": "Ocean View",
  "location": "Bangalore",
  "image": "img/about-3.jpg",
  "description": "A hotel with stunning ocean views and premium services in the heart of Bangalore.",
  "amenities": [
    "Beach Access",
    "Bar",
    "Room Service",
    "Airport Shuttle"
  ],
  "lat": 12.9716,
  "lng": 77.5946,
  "__v": 0,
  "roomsAvailable": 9,
  "totalRooms": 20
},
{
  "_id": {
    "$oid": "67dfe01bb256a8ff1630a81f"
  },
  "name": "Mountain Retreat",
  "location": "Chennai",
  "image": "img/about-1.jpg",
  "description": "A peaceful mountain retreat, perfect for adventure seekers and relaxation lovers.",
  "amenities": [
    "Hiking Trails",
    "Campfire",
    "Mountain View",
    "24/7 Security"
  ],
  "lat": 13.0827,
  "lng": 80.2707,
  "__v": 0,
  "roomsAvailable": 10,
  "totalRooms": 20
},
{
  "_id": {
    "$oid": "67dfe01bb256a8ff1630a820"
  },
  "name": "City Lights",
  "location": "Goa",
  "image": "img/goa.png",
  "description": "A modern hotel located in the heart of Goa, offering luxury and excitement.",
  "amenities": [
    "Casino",
    "Nightclub",
    "Fine Dining",
    "Private Beach"
  ],
  "lat": 15.2993,
  "lng": 74.124,
  "__v": 0,
  "roomsAvailable": 10,
  "totalRooms": 20
},
{
  "_id": {
    "$oid": "67dfe01bb256a8ff1630a821"
  },
  "name": "Luxury Stay",
  "location": "Kerala",
  "image": "img/hotel.jpg",
  "description": "A premium resort in Kerala, offering a peaceful backwater experience and fine dining.",
  "amenities": [
    "Boat Rides",
    "Yoga Center",
    "Spa",
    "Free Breakfast"
  ],
  "lat": 10.8505,
  "lng": 76.2711,
  "__v": 0,
  "roomsAvailable": 10,
  "totalRooms": 20
},
{
  "_id": {
    "$oid": "67dfe01bb256a8ff1630a822"
  },
  "name": "Temple City",
  "location": "Madurai",
  "image": "img/room-1.jpg",
  "description": "A comfortable stay near the historic Meenakshi Temple, blending tradition and luxury.",
  "amenities": [
    "Temple View",
    "Traditional Food",
    "Car Rental",
    "Conference Hall"
  ],
  "lat": 9.9252,
  "lng": 78.1198,
  "__v": 0,
  "roomsAvailable": 10,
  "totalRooms": 20
},
{
  "_id": {
    "$oid": "67dfe01bb256a8ff1630a823"
  },
  "name": "Race Course Luxury Suite",
  "location": "Coimbatore",
  "image": "img/outhouse.jpeg",
  "description": "A luxurious suite located near the Coimbatore Race Course, offering premium amenities.",
  "amenities": [
    "Luxury Spa",
    "Gym",
    "Bar",
    "Business Center"
  ],
  "lat": 11.0168,
  "lng": 76.9558,
  "__v": 0,
  "roomsAvailable": 10,
  "totalRooms": 20
},
{
  "_id": {
    "$oid": "67dfe01bb256a8ff1630a824"
  },
  "name": "Nilgiris Stay",
  "location": "Nilgiris",
  "image": "img/room-2.jpg",
  "description": "An eco-friendly stay in the serene Nilgiris, surrounded by lush green hills.",
  "amenities": [
    "Nature Walks",
    "Bonfire",
    "Organic Food",
    "Wildlife Safari"
  ],
  "lat": 11.4916,
  "lng": 76.7337,
  "__v": 0,
  "roomsAvailable": 10,
  "totalRooms": 20
},
{
  "_id": {
    "$oid": "67dfe01bb256a8ff1630a825"
  },
  "name": "Kodai Resorts",
  "location": "Kodaikanal",
  "image": "img/room-3.jpg",
  "description": "A cozy resort in the hills of Kodaikanal, perfect for families and honeymooners.",
  "amenities": [
    "Lake View",
    "Cycling",
    "Trekking",
    "Restaurant"
  ],
  "lat": 10.2381,
  "lng": 77.4892,
  "__v": 0,
  "roomsAvailable": 10,
  "totalRooms": 20
},
{
  "_id": {
    "$oid": "67dfe01bb256a8ff1630a826"
  },
  "name": "Ooty Chill City",
  "location": "Ooty",
  "image": "img/room4.png",
  "description": "An elegant resort in the queen of hill stations, Ooty, with a great climate all year round.",
  "amenities": [
    "Tea Garden Tours",
    "Campfire",
    "Sightseeing Packages",
    "Horse Riding"
  ],
  "lat": 11.4102,
  "lng": 76.695,
  "__v": 0,
  "roomsAvailable": 10,
  "totalRooms": 20
},
{
  "_id": {
    "$oid": "67dfe1efb42b4f6ebe1e37a5"
  },
  "name": "Fairfield by Marriott Sriperumbudur",
  "location": "Sriperumbudur",
  "image": "img/Sriperumbudur.jpg",
  "description": "A luxury stay in Sriperumbudur, offering world-class hospitality and amenities.",
  "amenities": [
    "Swimming Pool",
    "Gym",
    "Fine Dining",
    "Free Parking"
  ],
  "lat": 12.9681,
  "lng": 79.9391,
  "roomsAvailable": 10,
  "totalRooms": 20
},
{
  "_id": {
    "$oid": "67dfe1efb42b4f6ebe1e37a6"
  },
  "name": "Hotel Park Elanza",
  "location": "Coimbatore",
  "image": "img/park elanza.jpg",
  "description": "A business-class hotel with all modern facilities, located in the heart of Coimbatore.",
  "amenities": [
    "Banquet Hall",
    "Business Lounge",
    "Spa",
    "Conference Room"
  ],
  "lat": 11.0055,
  "lng": 76.9641,
  "roomsAvailable": 10,
  "totalRooms": 20
},
{
  "_id": {
    "$oid": "67dfe1efb42b4f6ebe1e37a7"
  },
  "name": "CTS Residency",
  "location": "Trichy",
  "image": "img/cts residency.jpg",
  "description": "A budget-friendly hotel in Trichy, offering a comfortable stay with essential services.",
  "amenities": [
    "Budget Stay",
    "Car Rental",
    "24/7 Room Service",
    "Restaurant"
  ],
  "lat": 10.7905,
  "lng": 78.7047,
  "roomsAvailable": 10,
  "totalRooms": 20
},
{
  "_id": {
    "$oid": "67dfe1efb42b4f6ebe1e37a8"
  },
  "name": "IKON by Annapoorna",
  "location": "RS Puram",
  "image": "img/IKON.jpg",
  "description": "A boutique hotel in RS Puram, offering a fine dining experience and comfortable stay.",
  "amenities": [
    "Restaurant",
    "Cafe",
    "Business Center",
    "Luxury Rooms"
  ],
  "lat": 11.0127,
  "lng": 76.9651,
  "roomsAvailable": 10,
  "totalRooms": 20
},
{
  "_id": {
    "$oid": "67dfe1efb42b4f6ebe1e37a9"
  },
  "name": "Itsy Hotels Kurinji Stay Inn",
  "location": "Yelagiri",
  "image": "img/yelagiri.jpg",
  "description": "A hilltop stay in Yelagiri, providing the best views of nature and adventure activities.",
  "amenities": [
    "Paragliding",
    "Boating",
    "Trekking",
    "Campfire"
  ],
  "lat": 12.5802,
  "lng": 78.6394,
  "roomsAvailable": 10,
  "totalRooms": 20
},
{
  "_id": {
    "$oid": "67dfe1efb42b4f6ebe1e37aa"
  },
  "name": "Hotel NT Grand",
  "location": "Yercaud",
  "image": "img/yercaud.jpg",
  "description": "A stylish hotel in Yercaud, offering a blend of luxury and nature experiences.",
  "amenities": [
    "Forest View",
    "Trekking",
    "Luxury Spa",
    "Private Balcony"
  ],
  "lat": 11.7753,
  "lng": 78.2093,
  "roomsAvailable": 9,
  "totalRooms": 20
},
{
  "_id": {
    "$oid": "67dfe1efb42b4f6ebe1e37ab"
  },
  "name": "TIO (The Indian Origin) Hotels",
  "location": "Yercaud",
  "image": "img/yercaud2.webp",
  "description": "A culturally themed hotel in Yercaud, offering a mix of Indian heritage and luxury.",
  "amenities": [
    "Cultural Events",
    "Yoga Sessions",
    "Traditional Cuisines",
    "Garden View"
  ],
  "lat": 11.784424350721144,
  "lng": 78.21714854905174,
  "roomsAvailable": 10,
  "totalRooms": 20
},
{
  "_id": {
    "$oid": "67dfe1efb42b4f6ebe1e37ac"
  },
  "name": "Zacs Valley Resort",
  "location": "Kodaikanal",
  "image": "img/zacs valley resort.webp",
  "description": "A valley-side resort in Kodaikanal, offering a premium getaway experience.",
  "amenities": [
    "Private Cottages",
    "Bonfire",
    "Forest Trek",
    "24/7 Service"
  ],
  "lat": 10.310429258157455,
  "lng": 77.52075519506549,
  "roomsAvailable": 10,
  "totalRooms": 20
}]